ID,YearStart,YearEnd,Description,LocationAbbr,LocationDesc,DataSource,Class,Topic,Question,Response,Data_Value_Unit,DataValueTypeId,Data_Value_Type,Data_Value,Data_Value_Footnote_Symbol,Data_Value_Footnote,Low_Confidence_Limit,High_Confidence_Limit,Sample_Size,GeoLocation_Lat,GeoLocation_Long,ClassId,TopicId,QuestionId,ResponseId,StratficationCategory1,StratificationCategoryId1,Stratification1,StratificationId1,StratificationCategory2,StratificationCategoryId2,Stratification2,StratificationId2,StratificationCategory3,StratificationCategoryId3,Stratification3,StratificationId3,LocationDisplayOrder,FootnoteSymbol,FootnoteText,URL,FootnoteHeading
88759,2011,2011,2011,US,National,YRBSS,Sugar Drinks,Sugar Drinks - Behavior,Percent of students in grades 9-12 who drank regular soda/pop at least one time per day †,,,VALUE,Value,27.8,,,25.6,30.1,"14,304",,,SD,SD1,Q058,,Total,OVR,Total,OVERALL,,,,,,,,,0,,,,
110854,2011,2011,2011,AL,Alabama,YRBSS,Sugar Drinks,Sugar Drinks - Behavior,Percent of students in grades 9-12 who drank regular soda/pop at least one time per day †,,,VALUE,Value,40.9,,,35.9,46.1,"1,336",32.84057112,-86.63186076,SD,SD1,Q058,,Total,OVR,Total,OVERALL,,,,,,,,,1,,,,
113090,2011,2011,2011,AK,Alaska,YRBSS,Sugar Drinks,Sugar Drinks - Behavior,Percent of students in grades 9-12 who drank regular soda/pop at least one time per day †,,,VALUE,Value,17.6,,,15,20.6,"1,315",64.84507996,-147.722059,SD,SD1,Q058,,Total,OVR,Total,OVERALL,,,,,,,,,2,,,,
113826,2011,2011,2011,AZ,Arizona,YRBSS,Sugar Drinks,Sugar Drinks - Behavior,Percent of students in grades 9-12 who drank regular soda/pop at least one time per day †,,,VALUE,Value,24.1,,,21.3,27,"2,085",34.86597028,-111.7638113,SD,SD1,Q058,,Total,OVR,Total,OVERALL,,,,,,,,,4,,,,
89952,2011,2011,2011,AR,Arkansas,YRBSS,Sugar Drinks,Sugar Drinks - Behavior,Percent of students in grades 9-12 who drank regular soda/pop at least one time per day †,,,VALUE,Value,34.7,,,31.8,37.8,"1,331",34.74865012,-92.27449074,SD,SD1,Q058,,Total,OVR,Total,OVERALL,,,,,,,,,5,,,,
112348,2011,2011,2011,CO,Colorado,YRBSS,Sugar Drinks,Sugar Drinks - Behavior,Percent of students in grades 9-12 who drank regular soda/pop at least one time per day †,,,VALUE,Value,23,,,20,26.3,"1,485",38.84384076,-106.1336109,SD,SD1,Q058,,Total,OVR,Total,OVERALL,,,,,,,,,8,,,,
113153,2011,2011,2011,DE,Delaware,YRBSS,Sugar Drinks,Sugar Drinks - Behavior,Percent of students in grades 9-12 who drank regular soda/pop at least one time per day †,,,VALUE,Value,26.1,,,23.7,28.5,"2,197",39.00883067,-75.57774117,SD,SD1,Q058,,Total,OVR,Total,OVERALL,,,,,,,,,10,,,,
97194,2011,2011,2011,DC,District of Columbia,YRBSS,Sugar Drinks,Sugar Drinks - Behavior,Percent of students in grades 9-12 who drank regular soda/pop at least one time per day †,,,VALUE,Value,23.9,,,21.3,26.7,"1,241",38.89037139,-77.03196113,SD,SD1,Q058,,Total,OVR,Total,OVERALL,,,,,,,,,11,,,,
108612,2011,2011,2011,FL,Florida,YRBSS,Sugar Drinks,Sugar Drinks - Behavior,Percent of students in grades 9-12 who drank regular soda/pop at least one time per day †,,,VALUE,Value,26,,,24.4,27.7,"6,005",28.93204038,-81.92896054,SD,SD1,Q058,,Total,OVR,Total,OVERALL,,,,,,,,,12,,,,
100963,2011,2011,2011,GA,Georgia,YRBSS,Sugar Drinks,Sugar Drinks - Behavior,Percent of students in grades 9-12 who drank regular soda/pop at least one time per day †,,,VALUE,Value,28.2,,,26,30.6,"1,885",32.83968109,-83.62758035,SD,SD1,Q058,,Total,OVR,Total,OVERALL,,,,,,,,,13,,,,
103017,2011,2011,2011,HI,Hawaii,YRBSS,Sugar Drinks,Sugar Drinks - Behavior,Percent of students in grades 9-12 who drank regular soda/pop at least one time per day †,,,VALUE,Value,17.5,,,15.6,19.6,"4,169",21.30485044,-157.8577494,SD,SD1,Q058,,Total,OVR,Total,OVERALL,,,,,,,,,15,,,,
113932,2011,2011,2011,ID,Idaho,YRBSS,Sugar Drinks,Sugar Drinks - Behavior,Percent of students in grades 9-12 who drank regular soda/pop at least one time per day †,,,VALUE,Value,17.9,,,15.1,21,"1,690",43.68263001,-114.36373,SD,SD1,Q058,,Total,OVR,Total,OVERALL,,,,,,,,,16,,,,
90911,2011,2011,2011,IL,Illinois,YRBSS,Sugar Drinks,Sugar Drinks - Behavior,Percent of students in grades 9-12 who drank regular soda/pop at least one time per day †,,,VALUE,Value,26.1,,,23.5,28.8,"3,376",40.48501028,-88.99771018,SD,SD1,Q058,,Total,OVR,Total,OVERALL,,,,,,,,,17,,,,
117200,2011,2011,2011,IN,Indiana,YRBSS,Sugar Drinks,Sugar Drinks - Behavior,Percent of students in grades 9-12 who drank regular soda/pop at least one time per day †,,,VALUE,Value,28.5,,,24.8,32.4,"2,820",39.76691045,-86.14996019,SD,SD1,Q058,,Total,OVR,Total,OVERALL,,,,,,,,,18,,,,
105768,2011,2011,2011,IA,Iowa,YRBSS,Sugar Drinks,Sugar Drinks - Behavior,Percent of students in grades 9-12 who drank regular soda/pop at least one time per day †,,,VALUE,Value,28.1,,,24.7,31.8,"1,523",42.46940091,-93.81649056,SD,SD1,Q058,,Total,OVR,Total,OVERALL,,,,,,,,,19,,,,
114648,2011,2011,2011,KS,Kansas,YRBSS,Sugar Drinks,Sugar Drinks - Behavior,Percent of students in grades 9-12 who drank regular soda/pop at least one time per day †,,,VALUE,Value,23.1,,,20.5,26,"1,853",38.3477403,-98.20078123,SD,SD1,Q058,,Total,OVR,Total,OVERALL,,,,,,,,,20,,,,
105445,2011,2011,2011,KY,Kentucky,YRBSS,Sugar Drinks,Sugar Drinks - Behavior,Percent of students in grades 9-12 who drank regular soda/pop at least one time per day †,,,VALUE,Value,36.4,,,32.2,40.8,"1,786",37.64597027,-84.77497105,SD,SD1,Q058,,Total,OVR,Total,OVERALL,,,,,,,,,21,,,,
108928,2011,2011,2011,LA,Louisiana,YRBSS,Sugar Drinks,Sugar Drinks - Behavior,Percent of students in grades 9-12 who drank regular soda/pop at least one time per day †,,,VALUE,Value,40.1,,,32,48.8,"1,138",31.31266064,-92.44568007,SD,SD1,Q058,,Total,OVR,Total,OVERALL,,,,,,,,,22,,,,
92368,2011,2011,2011,MD,Maryland,YRBSS,Sugar Drinks,Sugar Drinks - Behavior,Percent of students in grades 9-12 who drank regular soda/pop at least one time per day †,,,VALUE,Value,24.9,,,21.7,28.4,"2,757",39.29058096,-76.60926011,SD,SD1,Q058,,Total,OVR,Total,OVERALL,,,,,,,,,24,,,,
109308,2011,2011,2011,MA,Massachusetts,YRBSS,Sugar Drinks,Sugar Drinks - Behavior,Percent of students in grades 9-12 who drank regular soda/pop at least one time per day †,,,VALUE,Value,18.3,,,16,20.9,"2,647",42.27687047,-72.08269068,SD,SD1,Q058,,Total,OVR,Total,OVERALL,,,,,,,,,25,,,,
116302,2011,2011,2011,MI,Michigan,YRBSS,Sugar Drinks,Sugar Drinks - Behavior,Percent of students in grades 9-12 who drank regular soda/pop at least one time per day †,,,VALUE,Value,23.6,,,21.2,26.2,"4,142",44.66131954,-84.71439027,SD,SD1,Q058,,Total,OVR,Total,OVERALL,,,,,,,,,26,,,,
97285,2011,2011,2011,MS,Mississippi,YRBSS,Sugar Drinks,Sugar Drinks - Behavior,Percent of students in grades 9-12 who drank regular soda/pop at least one time per day †,,,VALUE,Value,40.5,,,37.9,43.2,"1,813",32.7455101,-89.53803083,SD,SD1,Q058,,Total,OVR,Total,OVERALL,,,,,,,,,28,,,,
100410,2011,2011,2011,MT,Montana,YRBSS,Sugar Drinks,Sugar Drinks - Behavior,Percent of students in grades 9-12 who drank regular soda/pop at least one time per day †,,,VALUE,Value,23.4,,,21.6,25.3,"4,070",47.06652897,-109.4244206,SD,SD1,Q058,,Total,OVR,Total,OVERALL,,,,,,,,,30,,,,
108613,2011,2011,2011,NE,Nebraska,YRBSS,Sugar Drinks,Sugar Drinks - Behavior,Percent of students in grades 9-12 who drank regular soda/pop at least one time per day †,,,VALUE,Value,26.2,,,24.6,27.9,"3,803",41.64104099,-99.36572062,SD,SD1,Q058,,Total,OVR,Total,OVERALL,,,,,,,,,31,,,,
107587,2011,2011,2011,NJ,New Jersey,YRBSS,Sugar Drinks,Sugar Drinks - Behavior,Percent of students in grades 9-12 who drank regular soda/pop at least one time per day †,,,VALUE,Value,18.5,,,16.3,21,"1,642",40.13057005,-74.27369129,SD,SD1,Q058,,Total,OVR,Total,OVERALL,,,,,,,,,34,,,,
91933,2011,2011,2011,NM,New Mexico,YRBSS,Sugar Drinks,Sugar Drinks - Behavior,Percent of students in grades 9-12 who drank regular soda/pop at least one time per day †,,,VALUE,Value,27.9,,,26.7,29.1,"5,662",34.52088095,-106.240581,SD,SD1,Q058,,Total,OVR,Total,OVERALL,,,,,,,,,35,,,,
115374,2011,2011,2011,NY,New York,YRBSS,Sugar Drinks,Sugar Drinks - Behavior,Percent of students in grades 9-12 who drank regular soda/pop at least one time per day †,,,VALUE,Value,21.4,,,19.7,23.1,"11,808",42.82700103,-75.54397043,SD,SD1,Q058,,Total,OVR,Total,OVERALL,,,,,,,,,36,,,,
89927,2011,2011,2011,NC,North Carolina,YRBSS,Sugar Drinks,Sugar Drinks - Behavior,Percent of students in grades 9-12 who drank regular soda/pop at least one time per day †,,,VALUE,Value,30.4,,,27.1,34,"1,898",35.46622098,-79.15925046,SD,SD1,Q058,,Total,OVR,Total,OVERALL,,,,,,,,,37,,,,
101478,2011,2011,2011,ND,North Dakota,YRBSS,Sugar Drinks,Sugar Drinks - Behavior,Percent of students in grades 9-12 who drank regular soda/pop at least one time per day †,,,VALUE,Value,26.8,,,24.2,29.6,"1,902",47.47531978,-100.118421,SD,SD1,Q058,,Total,OVR,Total,OVERALL,,,,,,,,,38,,,,
93807,2011,2011,2011,OH,Ohio,YRBSS,Sugar Drinks,Sugar Drinks - Behavior,Percent of students in grades 9-12 who drank regular soda/pop at least one time per day †,,,VALUE,Value,25.2,,,21.6,29.2,"1,398",40.06021014,-82.40426006,SD,SD1,Q058,,Total,OVR,Total,OVERALL,,,,,,,,,39,,,,
115299,2011,2011,2011,OK,Oklahoma,YRBSS,Sugar Drinks,Sugar Drinks - Behavior,Percent of students in grades 9-12 who drank regular soda/pop at least one time per day †,,,VALUE,Value,35.7,,,32.1,39.4,"1,139",35.47203136,-97.52107021,SD,SD1,Q058,,Total,OVR,Total,OVERALL,,,,,,,,,40,,,,
94133,2011,2011,2011,RI,Rhode Island,YRBSS,Sugar Drinks,Sugar Drinks - Behavior,Percent of students in grades 9-12 who drank regular soda/pop at least one time per day †,,,VALUE,Value,20.2,,,18.5,21.9,"3,884",41.70828019,-71.52247031,SD,SD1,Q058,,Total,OVR,Total,OVERALL,,,,,,,,,44,,,,
90119,2011,2011,2011,SC,South Carolina,YRBSS,Sugar Drinks,Sugar Drinks - Behavior,Percent of students in grades 9-12 who drank regular soda/pop at least one time per day †,,,VALUE,Value,33,,,29.1,37.1,"1,430",33.9988213,-81.04537121,SD,SD1,Q058,,Total,OVR,Total,OVERALL,,,,,,,,,45,,,,
92606,2011,2011,2011,SD,South Dakota,YRBSS,Sugar Drinks,Sugar Drinks - Behavior,Percent of students in grades 9-12 who drank regular soda/pop at least one time per day †,,,VALUE,Value,28.4,,,24.3,32.9,"1,526",44.35313005,-100.3735306,SD,SD1,Q058,,Total,OVR,Total,OVERALL,,,,,,,,,46,,,,
110042,2011,2011,2011,TN,Tennessee,YRBSS,Sugar Drinks,Sugar Drinks - Behavior,Percent of students in grades 9-12 who drank regular soda/pop at least one time per day †,,,VALUE,Value,40.2,,,37,43.5,"2,600",35.68094058,-85.77449091,SD,SD1,Q058,,Total,OVR,Total,OVERALL,,,,,,,,,47,,,,
102234,2011,2011,2011,TX,Texas,YRBSS,Sugar Drinks,Sugar Drinks - Behavior,Percent of students in grades 9-12 who drank regular soda/pop at least one time per day †,,,VALUE,Value,29,,,26.4,31.7,"4,116",31.82724041,-99.42677021,SD,SD1,Q058,,Total,OVR,Total,OVERALL,,,,,,,,,48,,,,
117516,2011,2011,2011,UT,Utah,YRBSS,Sugar Drinks,Sugar Drinks - Behavior,Percent of students in grades 9-12 who drank regular soda/pop at least one time per day †,,,VALUE,Value,14.3,,,12.4,16.4,"1,699",39.36070017,-111.5871306,SD,SD1,Q058,,Total,OVR,Total,OVERALL,,,,,,,,,49,,,,
89690,2011,2011,2011,VT,Vermont,YRBSS,Sugar Drinks,Sugar Drinks - Behavior,Percent of students in grades 9-12 who drank regular soda/pop at least one time per day †,,,VALUE,Value,16.1,,,13.2,19.6,"8,471",43.62538124,-72.51764079,SD,SD1,Q058,,Total,OVR,Total,OVERALL,,,,,,,,,50,,,,
105477,2011,2011,2011,VA,Virginia,YRBSS,Sugar Drinks,Sugar Drinks - Behavior,Percent of students in grades 9-12 who drank regular soda/pop at least one time per day †,,,VALUE,Value,24.3,,,20.3,28.8,"1,432",37.54268067,-78.45789046,SD,SD1,Q058,,Total,OVR,Total,OVERALL,,,,,,,,,51,,,,
100703,2011,2011,2011,WV,West Virginia,YRBSS,Sugar Drinks,Sugar Drinks - Behavior,Percent of students in grades 9-12 who drank regular soda/pop at least one time per day †,,,VALUE,Value,39.1,,,34.5,44,"2,143",38.6655102,-80.71264014,SD,SD1,Q058,,Total,OVR,Total,OVERALL,,,,,,,,,54,,,,
92323,2011,2011,2011,WI,Wisconsin,YRBSS,Sugar Drinks,Sugar Drinks - Behavior,Percent of students in grades 9-12 who drank regular soda/pop at least one time per day †,,,VALUE,Value,23.1,,,20.8,25.4,"3,000",44.39319117,-89.81637074,SD,SD1,Q058,,Total,OVR,Total,OVERALL,,,,,,,,,55,,,,
91167,2011,2011,2011,WY,Wyoming,YRBSS,Sugar Drinks,Sugar Drinks - Behavior,Percent of students in grades 9-12 who drank regular soda/pop at least one time per day †,,,VALUE,Value,25.9,,,23.4,28.5,"2,435",43.23554134,-108.1098304,SD,SD1,Q058,,Total,OVR,Total,OVERALL,,,,,,,,,56,,,,
,,,,,,,,,,,,,,,,,,,,,,,,,,,,,,,,,,,,,,,†,"Respondents were asked, “During the past 7 days, how many times did you drink a can, bottle, or glass of soda or pop, such as Coke, Pepsi, or Sprite? (Do not include diet soda or diet pop.)"" Response categories ranged from “I did not drink soda or pop during the past 7 days” to 4 or more times per day.",,Footnote
,,,,,,,,,,,,,,,,,,,,,,,,,,,,,,,,,,,,,,,,Youth Risk Behavior Surveillance System (YRBSS) - http://www.cdc.gov/healthyyouth/yrbs/index.htm,https://www.cdc.gov/healthyyouth/data/yrbs/index.htm,Data Source
,,,,,,,,,,,,,,,,,,,,,,,,,,,,,,,,,,,,,,,,"Centers for Disease Control and Prevention. National Center for Chronic Disease Prevention and Health Promotion, Division of Nutrition, Physical Activity, and Obesity. Data, Trend and Maps [online].",/nccdphp/dnpao/data-trends-maps/index.html,Suggested Citation
,,,,,,,,,,,,,,,,,,,,,,,,,,,,,,,,,,,,,,,,Breastfeeding,/breastfeeding/index.htm,Related Links
,,,,,,,,,,,,,,,,,,,,,,,,,,,,,,,,,,,,,,,,"Division of Nutrition, Physical Activity, and Obesity",/nccdphp/dnpao/index.html,Related Links
,,,,,,,,,,,,,,,,,,,,,,,,,,,,,,,,,,,,,,,,Physical Activity,/physicalactivity/index.html,Related Links
,,,,,,,,,,,,,,,,,,,,,,,,,,,,,,,,,,,,,,,,Chronic Disease Prevention and Health Promotion,/chronicdisease/index.htm,Related Links
,,,,,,,,,,,,,,,,,,,,,,,,,,,,,,,,,,,,,,,,Overweight and Obesity,/obesity/index.html,Related Links
,,,,,,,,,,,,,,,,,,,,,,,,,,,,,,,,,,,,,,,,State and Local Programs,/nccdphp/dnpao/state-local-programs/index.html,Related Links
